[{"code":2336210034,"division":"臺中市和平區梨山衛生所","location":"臺中市和平區中正路１２號１樓、６８號１樓","longitude":121.2592,"latitude":24.25678,"phoneNumber":"(04)25989540","brand":"羅氏家用新冠病毒抗原自我檢測套組","amount":533,"time":"2022/06/05 08:38:33","note":"提供24小時急診待診服務，快篩試劑販售時段為周一至五0900-12:00，六日及國定假日為0900-1100"},{"code":2340180012,"division":"嘉義縣阿里山鄉衛生所","location":"嘉義縣阿里山鄉樂野村３鄰９７－２號","longitude":120.7019,"latitude":23.4666,"phoneNumber":"(05)2561573","brand":"羅氏家用新冠病毒抗原自我檢測套組","amount":370,"time":"2022/06/05 08:38:33","note":"阿里山遊樂區"},{"code":2343140010,"division":"屏東縣竹田鄉衛生所","location":"屏東縣竹田鄉竹田村中山路２５號","longitude":120.5431,"latitude":22.58637,"phoneNumber":"(08)7710445","brand":"羅氏家用新冠病毒抗原自我檢測套組","amount":396,"time":"2022/06/05 08:38:33","note":"無"},{"code":2343210017,"division":"屏東縣佳冬鄉衛生所","location":"屏東縣佳冬鄉六根村佳和路８７－１號","longitude":120.5496,"latitude":22.41426,"phoneNumber":"(08)8662018","brand":"羅氏家用新冠病毒抗原自我檢測套組","amount":247,"time":"2022/06/05 08:38:33","note":"無"},{"code":2343230019,"division":"屏東縣車城鄉衛生所","location":"屏東縣車城鄉福安村福安路２之３０號","longitude":120.7125,"latitude":22.06986,"phoneNumber":"(08)8821300","brand":"羅氏家用新冠病毒抗原自我檢測套組","amount":484,"time":"2022/06/05 08:38:33","note":"販賣快篩試劑時間:週一~週五10:00至12:00"},{"code":2343240015,"division":"屏東縣滿州鄉衛生所","location":"屏東縣滿州鄉滿州村中山路３１號","longitude":120.8381,"latitude":22.01898,"phoneNumber":"(08)8801279","brand":"羅氏家用新冠病毒抗原自我檢測套組","amount":341,"time":"2022/06/05 08:38:33","note":"無"},{"code":2343250011,"division":"屏東縣枋山鄉衛生所","location":"屏東縣枋山鄉枋山村枋山路９８號","longitude":120.6527,"latitude":22.26464,"phoneNumber":"(08)8761150","brand":"羅氏家用新冠病毒抗原自我檢測套組","amount":553,"time":"2022/06/05 08:38:33","note":"快篩試劑販售時間8點至9點，售完為止"},{"code":2343260017,"division":"屏東縣三地門鄉衛生所","location":"屏東縣三地門鄉三地村行政街４號","longitude":120.653,"latitude":22.71477,"phoneNumber":"(08)7991284","brand":"羅氏家用新冠病毒抗原自我檢測套組","amount":507,"time":"2022/06/05 08:38:33","note":"假日及夜間提供待診；端午連假快篩販售時間0900~1200賣完為止"},{"code":2343270013,"division":"屏東縣霧台鄉衛生所","location":"屏東縣霧台鄉霧台村神山巷６８號","longitude":120.7261,"latitude":22.74989,"phoneNumber":"(08)7902232","brand":"羅氏家用新冠病毒抗原自我檢測套組","amount":692,"time":"2022/06/05 08:38:33","note":"5／6 20份販售於禮納里公共服務中心一樓（下午2~4點）"},{"code":2343280019,"division":"屏東縣瑪家鄉衛生所","location":"屏東縣瑪家鄉北葉村風景巷８６號","longitude":120.6496,"latitude":22.70801,"phoneNumber":"(08)7991164","brand":"羅氏家用新冠病毒抗原自我檢測套組","amount":373,"time":"2022/06/05 08:38:33","note":"快篩販售時間:星期一至星期五8:30-12:00 13:00-16:30"},{"code":2343290015,"division":"屏東縣泰武鄉衛生所","location":"屏東縣泰武鄉佳平村１７９號","longitude":120.6327,"latitude":22.59212,"phoneNumber":"(08)7832059","brand":"羅氏家用新冠病毒抗原自我檢測套組","amount":494,"time":"2022/06/05 08:38:33","note":"無"},{"code":2343300016,"division":"屏東縣來義鄉衛生所","location":"屏東縣來義鄉古樓村中正路９０號","longitude":120.632,"latitude":22.52584,"phoneNumber":"(08)7850103","brand":"羅氏家用新冠病毒抗原自我檢測套組","amount":673,"time":"2022/06/05 08:38:33","note":"無"},{"code":2343310012,"division":"屏東縣春日鄉衛生所","location":"屏東縣春日鄉春日村春日路１７６號","longitude":120.6251,"latitude":22.37008,"phoneNumber":"(08)8780358","brand":"羅氏家用新冠病毒抗原自我檢測套組","amount":596,"time":"2022/06/05 08:38:33","note":"無"},{"code":2343320018,"division":"屏東縣獅子鄉衛生所","location":"屏東縣獅子鄉楓林村楓林二巷３１號","longitude":120.7057,"latitude":22.18402,"phoneNumber":"(08)8771324","brand":"羅氏家用新冠病毒抗原自我檢測套組","amount":513,"time":"2022/06/05 08:38:33","note":"特休日：每年農曆除夕、初一"},{"code":2343330014,"division":"屏東縣牡丹鄉衛生所","location":"屏東縣牡丹鄉石門村１９號","longitude":120.7469,"latitude":22.10105,"phoneNumber":"(08)8831013","brand":"羅氏家用新冠病毒抗原自我檢測套組","amount":440,"time":"2022/06/05 08:38:33","note":"早上9:00 實名制快篩販售（售完為止）"},{"code":2344011036,"division":"澎湖縣馬公市第三衛生所","location":"澎湖縣馬公市西文里１１８之２號","longitude":119.5836,"latitude":23.56813,"phoneNumber":"(06)9211723","brand":"羅氏家用新冠病毒抗原自我檢測套組","amount":576,"time":"2022/06/05 08:38:33","note":"本所快篩試劑只提供離島衛生室（虎井、桶盤）販售，時間週一至週五08:30-17:00售完為止，星期六、日國定假日09:00-12:00。"},{"code":2344030013,"division":"澎湖縣白沙鄉衛生所","location":"澎湖縣白沙鄉赤崁村３５９號","longitude":119.5982,"latitude":23.66669,"phoneNumber":"(06)9931044","brand":"羅氏家用新冠病毒抗原自我檢測套組","amount":715,"time":"2022/06/05 08:38:33","note":"星期日上午門診看診（每月最後一個星期日休診）； 星期五上午巡迴醫療（中屯村，講美村，通樑村）"},{"code":2344030022,"division":"澎湖縣白沙鄉鳥嶼衛生所","location":"澎湖縣白沙鄉鳥嶼村漁港新村３號","longitude":119.6599,"latitude":23.66008,"phoneNumber":"(06)9916092","brand":"羅氏家用新冠病毒抗原自我檢測套組","amount":575,"time":"2022/06/05 08:38:33","note":"非上班時間提供急診服務"},{"code":2344030031,"division":"澎湖縣白沙鄉吉貝衛生所","location":"澎湖縣白沙鄉吉貝村８－１３號","longitude":119.6138,"latitude":23.74056,"phoneNumber":"(06)9911430","brand":"羅氏家用新冠病毒抗原自我檢測套組","amount":523,"time":"2022/06/05 08:38:33","note":"無"},{"code":2344050015,"division":"澎湖縣望安鄉衛生所","location":"澎湖縣望安鄉西安村３６－７號","longitude":119.4972,"latitude":23.36161,"phoneNumber":"(06)9991036","brand":"羅氏家用新冠病毒抗原自我檢測套組","amount":413,"time":"2022/06/05 08:38:33","note":"夜間急診。快篩試劑販售時間為:每日08:00-12:00、13:30-17:30售完為止，如有餘數為離島未售出（東嶼坪、花嶼）。"},{"code":2344050024,"division":"澎湖縣望安鄉將軍衛生所","location":"澎湖縣望安鄉將軍村１２鄰將軍澳１之３號","longitude":119.5216,"latitude":23.3615,"phoneNumber":"(06)9902066","brand":"羅氏家用新冠病毒抗原自我檢測套組","amount":447,"time":"2022/06/05 08:38:33","note":"24小時急診"},{"code":2344060011,"division":"澎湖縣七美鄉衛生所","location":"澎湖縣七美鄉中和村埔內５４號","longitude":119.431,"latitude":23.2041,"phoneNumber":"(06)9971005","brand":"羅氏家用新冠病毒抗原自我檢測套組","amount":663,"time":"2022/06/05 08:38:33","note":"無"},{"code":5901010076,"division":"榮星藥局","location":"臺北市松山區南京東路４段１３３巷５弄１號","longitude":121.5552,"latitude":25.05214,"phoneNumber":"(02)27124696","brand":"羅氏家用新冠病毒抗原自我檢測套組","amount":289,"time":"2022/06/05 08:38:33","note":"一~六早上08:00發快篩星期日早上10:00發快篩"},{"code":5901010174,"division":"仁弘藥局","location":"臺北市松山區民生東路３段１１３巷２５弄６號１樓","longitude":121.5466,"latitude":25.05948,"phoneNumber":"(02)27136764","brand":"羅氏家用新冠病毒抗原自我檢測套組","amount":466,"time":"2022/06/05 08:38:33","note":"早上9點."},{"code":5901010192,"division":"益華藥局","location":"臺北市松山區民生東路５段１３８巷６號","longitude":121.5615,"latitude":25.05827,"phoneNumber":"(02)27624898","brand":"羅氏家用新冠病毒抗原自我檢測套組","amount":440,"time":"2022/06/05 08:38:33","note":"無"},{"code":5901010290,"division":"健全藥局","location":"臺北市松山區民權東路３段１０３巷２０號","longitude":121.5449,"latitude":25.06327,"phoneNumber":"(02)27128293","brand":"羅氏家用新冠病毒抗原自我檢測套組","amount":358,"time":"2022/06/05 08:38:33","note":"無"},{"code":5901010496,"division":"瑞昌大藥局","location":"臺北市松山區民權東路３段１０３巷１０號","longitude":121.5449,"latitude":25.06298,"phoneNumber":"(02)27151881","brand":"羅氏家用新冠病毒抗原自我檢測套組","amount":380,"time":"2022/06/05 08:38:33","note":"無"},{"code":5901011975,"division":"萬泰藥局","location":"臺北市松山區敦化北路２２２巷３８號","longitude":121.5471,"latitude":25.05994,"phoneNumber":"(02)27135891","brand":"羅氏家用新冠病毒抗原自我檢測套組","amount":326,"time":"2022/06/05 08:38:33","note":"每日早上9.00販售快篩試劑"},{"code":5901012409,"division":"家音藥局","location":"臺北市松山區民生東路５段７３號","longitude":121.5585,"latitude":25.05871,"phoneNumber":"(02)37652080","brand":"羅氏家用新冠病毒抗原自我檢測套組","amount":328,"time":"2022/06/05 08:38:33","note":"實名制快篩販售時段公告，請追蹤美康健保藥局 家音店 FB粉絲頁，謝謝~"},{"code":5901012632,"division":"晨安藥局","location":"臺北市松山區八德路３段１５５巷２０弄２號","longitude":121.5553,"latitude":25.04914,"phoneNumber":"(02)25798460","brand":"羅氏家用新冠病毒抗原自我檢測套組","amount":398,"time":"2022/06/05 08:38:33","note":"快篩實名制販售時間:平日下午3點-假日下午1點；現場販售，不抽號碼牌。端午連假，不販售快篩。"},{"code":5901012650,"division":"銘德藥局","location":"臺北市松山區八德路２段３６６巷２８號","longitude":121.5459,"latitude":25.04724,"phoneNumber":"(02)27511833","brand":"羅氏家用新冠病毒抗原自我檢測套組","amount":375,"time":"2022/06/05 08:38:33","note":"實名制快篩早上十點開始販售，星期天販售時間另行公告"},{"code":5901012749,"division":"躍獅松和藥局","location":"臺北市松山區八德路四段６６６－１號","longitude":121.5761,"latitude":25.04979,"phoneNumber":"(02)27492569","brand":"羅氏家用新冠病毒抗原自我檢測套組","amount":434,"time":"2022/06/05 08:38:33","note":"實名制快篩販售時段，每日下午4點販售，售完為止"},{"code":5901012758,"division":"京東藥局","location":"臺北市松山區南京東路五段２７２號","longitude":121.5669,"latitude":25.05114,"phoneNumber":"(02)27679503","brand":"羅氏家用新冠病毒抗原自我檢測套組","amount":395,"time":"2022/06/05 08:38:33","note":"依每日到貨狀況， 每日下午1點發放實名制快篩"},{"code":5901012767,"division":"晨新藥局","location":"臺北市松山區八德路４段９１巷１－１號","longitude":121.5608,"latitude":25.04894,"phoneNumber":"(02)27422951","brand":"羅氏家用新冠病毒抗原自我檢測套組","amount":380,"time":"2022/06/05 08:38:33","note":"本店星期一不販售快篩，其餘時間為下午2點至5點排隊販售。若有修正依店內公告為主。"},{"code":5901012918,"division":"躍獅京華藥局","location":"臺北市松山區南京東路５段７１號","longitude":121.5596,"latitude":25.05172,"phoneNumber":"(02)27666508","brand":"羅氏家用新冠病毒抗原自我檢測套組","amount":222,"time":"2022/06/05 08:38:33","note":"實名制快篩販售時間：每日早上09:00，無發放號碼牌"},{"code":5901013120,"division":"誠康中西藥局","location":"臺北市松山區南京東路５段５９巷３１弄４３號","longitude":121.5607,"latitude":25.05346,"phoneNumber":"(02)27619679","brand":"羅氏家用新冠病毒抗原自我檢測套組","amount":358,"time":"2022/06/05 08:38:33","note":"禮拜一到日早上7點發快篩~"},{"code":5901013175,"division":"台北長庚維康藥局","location":"臺北市松山區敦化北路１９９巷２弄５號１樓","longitude":121.55,"latitude":25.05563,"phoneNumber":"(02)27199386","brand":"羅氏家用新冠病毒抗原自我檢測套組","amount":414,"time":"2022/06/05 08:38:33","note":"無"},{"code":5901013200,"division":"專品南京藥局","location":"臺北市松山區南京東路４段７３號","longitude":121.5532,"latitude":25.05185,"phoneNumber":"(02)25147685","brand":"羅氏家用新冠病毒抗原自我檢測套組","amount":335,"time":"2022/06/05 08:38:33","note":"無"},{"code":5901013308,"division":"立赫敦北藥局","location":"臺北市松山區敦化北路２２２巷２０號","longitude":121.5477,"latitude":25.05945,"phoneNumber":"(02)27199277","brand":"羅氏家用新冠病毒抗原自我檢測套組","amount":369,"time":"2022/06/05 08:38:33","note":"6／4（六）中午12:00開始販售至20:00"},{"code":5901013362,"division":"啄木鳥藥局","location":"臺北市松山區八德路４段２０９號、２１１號（１、２層）","longitude":121.564,"latitude":25.04894,"phoneNumber":"(02)27422413","brand":"羅氏家用新冠病毒抗原自我檢測套組","amount":298,"time":"2022/06/05 08:38:33","note":"每日早上10點開始販售實名制快篩"},{"code":5901013371,"division":"玖田藥局","location":"臺北市松山區八德路４段６５５號","longitude":121.5755,"latitude":25.05018,"phoneNumber":"(02)27666578","brand":"羅氏家用新冠病毒抗原自我檢測套組","amount":292,"time":"2022/06/05 08:38:33","note":"實名制快篩：每日14:40"},{"code":5901013380,"division":"澄馨藥局","location":"臺北市松山區三民路３７號","longitude":121.5635,"latitude":25.0558,"phoneNumber":"(02)27420159","brand":"羅氏家用新冠病毒抗原自我檢測套組","amount":385,"time":"2022/06/05 08:38:33","note":"無"},{"code":5901013399,"division":"一安正昇藥局","location":"臺北市松山區南京東路５段３０９號","longitude":121.5667,"latitude":25.05155,"phoneNumber":"(02)27680993","brand":"羅氏家用新冠病毒抗原自我檢測套組","amount":131,"time":"2022/06/05 08:38:33","note":"快篩發放時間  下午14:30"},{"code":5901013442,"division":"松山八德藥局","location":"臺北市松山區八德路２段４００號","longitude":121.5466,"latitude":25.04804,"phoneNumber":"(02)27782773","brand":"羅氏家用新冠病毒抗原自我檢測套組","amount":344,"time":"2022/06/05 08:38:33","note":"快篩實名制，每天16:00開始販售，售完為止。"},{"code":5901013513,"division":"立赫民生藥局","location":"臺北市松山區民生東路４段７２號","longitude":121.5524,"latitude":25.05787,"phoneNumber":"(02)27139200","brand":"羅氏家用新冠病毒抗原自我檢測套組","amount":280,"time":"2022/06/05 08:38:33","note":"6／6（一）9:30開始販售  6／5（日）店休"},{"code":5901013586,"division":"安禾大藥局","location":"臺北市松山區撫遠街３８２號","longitude":121.5656,"latitude":25.06443,"phoneNumber":"(02)27602952","brand":"羅氏家用新冠病毒抗原自我檢測套組","amount":635,"time":"2022/06/05 08:38:33","note":"65歲以上老人12歲以下兒童優先"},{"code":5901013620,"division":"躍獅敦北藥局","location":"臺北市松山區民生東路４段８０巷５號１樓","longitude":121.5531,"latitude":25.05713,"phoneNumber":"(02)27155691","brand":"羅氏家用新冠病毒抗原自我檢測套組","amount":549,"time":"2022/06/05 08:38:33","note":"實名制快篩販售時間PM14:30 本店會預留28份供及人大廈住戶購買 剩餘數量供現場民眾排隊購買（14:30開始販購）"},{"code":5901013648,"division":"慶昌藥局","location":"臺北市松山區延吉街２９號１樓","longitude":121.5537,"latitude":25.04595,"phoneNumber":"(02)25770820","brand":"羅氏家用新冠病毒抗原自我檢測套組","amount":406,"time":"2022/06/05 08:38:33","note":"下午14:00開始發放"},{"code":5901013657,"division":"順儷中崙藥局","location":"臺北市松山區八德路３段７４巷４８號１樓","longitude":121.5525,"latitude":25.04685,"phoneNumber":"(02)25796900","brand":"羅氏家用新冠病毒抗原自我檢測套組","amount":325,"time":"2022/06/05 08:38:33","note":"無"}]